[
  {
    "id": "해운대해수욕장",
    "name": "해운대해수욕장",
    "district": "해운대구",
    "area": "east",
    "category": "beach",
    "address_hint": "부산 해운대구",
    "lat": 35.163140292741296,
    "lng": 129.16356072480633,
    "tags": "coastal;walk;photo;sunrise;date",
    "stay_min": 60,
    "best_time": "day",
    "indoor": "False",
    "wheelchair": "unknown",
    "pet_friendly": "unknown",
    "source": "seed_v2"
  },
  {
    "id": "동백섬-누리마루-apec하우스",
    "name": "동백섬 누리마루 APEC하우스",
    "district": "해운대구",
    "area": "east",
    "category": "viewpoint",
    "address_hint": "부산 해운대구",
    "lat": 35.1523345777828,
    "lng": 129.151325936955,
    "tags": "view;walk;photo;date",
    "stay_min": 45,
    "best_time": "day",
    "indoor": "False",
    "wheelchair": "unknown",
    "pet_friendly": "unknown",
    "source": "seed_v2"
  },
  {
    "id": "더베이101",
    "name": "더베이101",
    "district": "해운대구",
    "area": "east",
    "category": "nightview_spot",
    "address_hint": "부산 해운대구",
    "lat": 35.163140292741296,
    "lng": 129.16356072480633,
    "tags": "nightview;photo;date;cafe",
    "stay_min": 40,
    "best_time": "night",
    "indoor": "False",
    "wheelchair": "unknown",
    "pet_friendly": "unknown",
    "source": "seed_v2"
  },
  {
    "id": "마린시티-스카이라인-포인트",
    "name": "마린시티 스카이라인 포인트",
    "district": "해운대구",
    "area": "east",
    "category": "nightview_spot",
    "address_hint": "부산 해운대구",
    "lat": 35.1630666685464,
    "lng": 129.163596084009,
    "tags": "nightview;photo;date",
    "stay_min": 30,
    "best_time": "night",
    "indoor": "False",
    "wheelchair": "unknown",
    "pet_friendly": "unknown",
    "source": "seed_v2"
  },
  {
    "id": "달맞이길-전망",
    "name": "달맞이길 전망",
    "district": "해운대구",
    "area": "east",
    "category": "viewpoint",
    "address_hint": "부산 해운대구",
    "lat": 35.16347450708528,
    "lng": 129.18509632214605,
    "tags": "view;walk;photo;date",
    "stay_min": 30,
    "best_time": "sunset",
    "indoor": "False",
    "wheelchair": "unknown",
    "pet_friendly": "unknown",
    "source": "seed_v2"
  },
  {
    "id": "청사포-다릿돌전망대",
    "name": "청사포 다릿돌전망대",
    "district": "해운대구",
    "area": "east",
    "category": "viewpoint",
    "address_hint": "부산 해운대구 청사포",
    "lat": 35.16418891718333,
    "lng": 129.19631396716275,
    "tags": "view;coastal;photo;walk",
    "stay_min": 40,
    "best_time": "day",
    "indoor": "False",
    "wheelchair": "unknown",
    "pet_friendly": "unknown",
    "source": "seed_v2"
  },
  {
    "id": "미포-스카이캡슐-블루라인",
    "name": "미포 스카이캡슐(블루라인)",
    "district": "해운대구",
    "area": "east",
    "category": "attraction",
    "address_hint": "부산 해운대구 미포",
    "lat": 35.15815259880406,
    "lng": 129.17281473802996,
    "tags": "view;coastal;photo;date",
    "stay_min": 40,
    "best_time": "day",
    "indoor": "False",
    "wheelchair": "unknown",
    "pet_friendly": "unknown",
    "source": "seed_v2"
  },
  {
    "id": "블루라인파크-해변열차-미포-송정",
    "name": "블루라인파크 해변열차(미포–송정)",
    "district": "해운대구",
    "area": "east",
    "category": "attraction",
    "address_hint": "부산 해운대구",
    "lat": 35.1630666685464,
    "lng": 129.163596084009,
    "tags": "view;coastal;photo;date",
    "stay_min": 45,
    "best_time": "day",
    "indoor": "False",
    "wheelchair": "unknown",
    "pet_friendly": "unknown",
    "source": "seed_v2"
  },
  {
    "id": "송정해수욕장",
    "name": "송정해수욕장",
    "district": "해운대구",
    "area": "east",
    "category": "beach",
    "address_hint": "부산 해운대구 송정동",
    "lat": 35.1811012463477,
    "lng": 129.200440466454,
    "tags": "coastal;surf;photo;sunrise;walk",
    "stay_min": 60,
    "best_time": "day",
    "indoor": "False",
    "wheelchair": "unknown",
    "pet_friendly": "unknown",
    "source": "seed_v2"
  },
  {
    "id": "해동용궁사",
    "name": "해동용궁사",
    "district": "기장군",
    "area": "east",
    "category": "temple",
    "address_hint": "부산 기장군",
    "lat": 35.1979296425005,
    "lng": 129.2282813828017,
    "tags": "coastal;view;photo;history",
    "stay_min": 50,
    "best_time": "day",
    "indoor": "False",
    "wheelchair": "unknown",
    "pet_friendly": "unknown",
    "source": "seed_v2"
  },
  {
    "id": "부산엑스더스카이-엘시티-전망대",
    "name": "부산엑스더스카이(엘시티 전망대)",
    "district": "해운대구",
    "area": "east",
    "category": "tower",
    "address_hint": "부산 해운대구",
    "lat": 35.1630666685464,
    "lng": 129.163596084009,
    "tags": "view;photo;nightview;indoor",
    "stay_min": 60,
    "best_time": "night",
    "indoor": "True",
    "wheelchair": "unknown",
    "pet_friendly": "unknown",
    "source": "seed_v2"
  },
  {
    "id": "sea-life-부산아쿠아리움",
    "name": "SEA LIFE 부산아쿠아리움",
    "district": "해운대구",
    "area": "east",
    "category": "museum",
    "address_hint": "부산 해운대구",
    "lat": 35.159399436738006,
    "lng": 129.16165546621502,
    "tags": "indoor;rainy;kids;education",
    "stay_min": 60,
    "best_time": "day",
    "indoor": "True",
    "wheelchair": "unknown",
    "pet_friendly": "unknown",
    "source": "seed_v2"
  },
  {
    "id": "신세계-센텀시티-스파랜드",
    "name": "신세계 센텀시티 스파랜드",
    "district": "해운대구",
    "area": "east",
    "category": "spa",
    "address_hint": "부산 해운대구 센텀",
    "lat": 35.1688143645775,
    "lng": 129.129526132637,
    "tags": "indoor;rainy;relax;date",
    "stay_min": 90,
    "best_time": "day",
    "indoor": "True",
    "wheelchair": "unknown",
    "pet_friendly": "unknown",
    "source": "seed_v2"
  },
  {
    "id": "센텀시티몰-쇼핑",
    "name": "센텀시티몰(쇼핑)",
    "district": "해운대구",
    "area": "east",
    "category": "mall",
    "address_hint": "부산 해운대구 센텀",
    "lat": 35.1573461694236,
    "lng": 129.147398011642,
    "tags": "indoor;rainy;shopping",
    "stay_min": 50,
    "best_time": "day",
    "indoor": "True",
    "wheelchair": "unknown",
    "pet_friendly": "unknown",
    "source": "seed_v2"
  },
  {
    "id": "벡스코-bexco",
    "name": "벡스코(BEXCO)",
    "district": "해운대구",
    "area": "east",
    "category": "mall",
    "address_hint": "부산 해운대구 센텀",
    "lat": 35.1688335422589,
    "lng": 129.138867985335,
    "tags": "indoor;event;rainy",
    "stay_min": 40,
    "best_time": "day",
    "indoor": "True",
    "wheelchair": "unknown",
    "pet_friendly": "unknown",
    "source": "seed_v2"
  },
  {
    "id": "부산시립미술관",
    "name": "부산시립미술관",
    "district": "해운대구",
    "area": "east",
    "category": "museum",
    "address_hint": "부산 해운대구",
    "lat": 35.1605734526236,
    "lng": 129.154839286818,
    "tags": "indoor;rainy;culture",
    "stay_min": 50,
    "best_time": "day",
    "indoor": "True",
    "wheelchair": "unknown",
    "pet_friendly": "unknown",
    "source": "seed_v2"
  },
  {
    "id": "영화의전당",
    "name": "영화의전당",
    "district": "해운대구",
    "area": "east",
    "category": "attraction",
    "address_hint": "부산 해운대구 센텀",
    "lat": 35.1740363524854,
    "lng": 129.129381394325,
    "tags": "culture;nightview;photo",
    "stay_min": 50,
    "best_time": "night",
    "indoor": "False",
    "wheelchair": "unknown",
    "pet_friendly": "unknown",
    "source": "seed_v2"
  },
  {
    "id": "apec-나루공원",
    "name": "APEC 나루공원",
    "district": "해운대구",
    "area": "east",
    "category": "park",
    "address_hint": "부산 해운대구 센텀",
    "lat": 35.1702368252523,
    "lng": 129.1256541055562,
    "tags": "walk;nature;family",
    "stay_min": 40,
    "best_time": "day",
    "indoor": "False",
    "wheelchair": "unknown",
    "pet_friendly": "unknown",
    "source": "seed_v2"
  },
  {
    "id": "온천천-벚꽃길-동래-수영",
    "name": "온천천 벚꽃길(동래~수영)",
    "district": "동래구",
    "area": "east",
    "category": "trail",
    "address_hint": "부산 동래구",
    "lat": 35.2050915314732,
    "lng": 129.083719021169,
    "tags": "walk;nature;photo;seasonal;cherryblossom",
    "stay_min": 60,
    "best_time": "day",
    "indoor": "False",
    "wheelchair": "unknown",
    "pet_friendly": "unknown",
    "source": "seed_v2"
  },
  {
    "id": "국립부산과학관",
    "name": "국립부산과학관",
    "district": "기장군",
    "area": "east",
    "category": "museum",
    "address_hint": "부산 기장군",
    "lat": 35.2046403803131,
    "lng": 129.21270779157,
    "tags": "indoor;kids;education;rainy",
    "stay_min": 70,
    "best_time": "day",
    "indoor": "True",
    "wheelchair": "unknown",
    "pet_friendly": "unknown",
    "source": "seed_v2"
  },
  {
    "id": "청사포-카페거리",
    "name": "청사포 카페거리",
    "district": "해운대구",
    "area": "east",
    "category": "cafe_zone",
    "address_hint": "부산 해운대구 청사포",
    "lat": 35.1611,
    "lng": 129.1925,
    "tags": "cafe;date;photo;coastal",
    "stay_min": 50,
    "best_time": "day",
    "indoor": "False",
    "wheelchair": "unknown",
    "pet_friendly": "unknown",
    "source": "seed_v2"
  },
  {
    "id": "달맞이길-카페거리",
    "name": "달맞이길 카페거리",
    "district": "해운대구",
    "area": "east",
    "category": "cafe_zone",
    "address_hint": "부산 해운대구 달맞이길",
    "lat": 35.1632420087577,
    "lng": 129.18558094341,
    "tags": "cafe;date;view;photo",
    "stay_min": 50,
    "best_time": "sunset",
    "indoor": "False",
    "wheelchair": "unknown",
    "pet_friendly": "unknown",
    "source": "seed_v2"
  },
  {
    "id": "송정-카페거리",
    "name": "송정 카페거리",
    "district": "해운대구",
    "area": "east",
    "category": "cafe_zone",
    "address_hint": "부산 해운대구 송정동",
    "lat": 35.1836575939971,
    "lng": 129.203669439394,
    "tags": "cafe;date;coastal;photo",
    "stay_min": 45,
    "best_time": "day",
    "indoor": "False",
    "wheelchair": "unknown",
    "pet_friendly": "unknown",
    "source": "seed_v2"
  },
  {
    "id": "광안리해수욕장",
    "name": "광안리해수욕장",
    "district": "수영구",
    "area": "south",
    "category": "beach",
    "address_hint": "부산 수영구",
    "lat": 35.14540375706549,
    "lng": 129.1123186135992,
    "tags": "coastal;photo;nightview;date;walk",
    "stay_min": 60,
    "best_time": "day",
    "indoor": "False",
    "wheelchair": "unknown",
    "pet_friendly": "unknown",
    "source": "seed_v2"
  },
  {
    "id": "민락수변공원",
    "name": "민락수변공원",
    "district": "수영구",
    "area": "south",
    "category": "nightview_spot",
    "address_hint": "부산 수영구 민락동",
    "lat": 35.15850383178738,
    "lng": 129.12262521232608,
    "tags": "nightview;photo;date;walk",
    "stay_min": 40,
    "best_time": "night",
    "indoor": "False",
    "wheelchair": "unknown",
    "pet_friendly": "unknown",
    "source": "seed_v2"
  },
  {
    "id": "이기대-해안공원-하이라이트",
    "name": "이기대 해안공원(하이라이트)",
    "district": "남구",
    "area": "south",
    "category": "trail",
    "address_hint": "부산 남구",
    "lat": 35.136522660289,
    "lng": 129.084238267311,
    "tags": "walk;coastal;view;nature;photo",
    "stay_min": 90,
    "best_time": "day",
    "indoor": "False",
    "wheelchair": "unknown",
    "pet_friendly": "unknown",
    "source": "seed_v2"
  },
  {
    "id": "오륙도-스카이워크",
    "name": "오륙도 스카이워크",
    "district": "남구",
    "area": "south",
    "category": "viewpoint",
    "address_hint": "부산 남구",
    "lat": 35.1006495749289,
    "lng": 129.124487940263,
    "tags": "view;coastal;photo",
    "stay_min": 30,
    "best_time": "day",
    "indoor": "False",
    "wheelchair": "unknown",
    "pet_friendly": "unknown",
    "source": "seed_v2"
  },
  {
    "id": "부산시립박물관",
    "name": "부산시립박물관",
    "district": "남구",
    "area": "south",
    "category": "museum",
    "address_hint": "부산 남구",
    "lat": 35.1295782173772,
    "lng": 129.094381021886,
    "tags": "indoor;rainy;culture",
    "stay_min": 50,
    "best_time": "day",
    "indoor": "True",
    "wheelchair": "unknown",
    "pet_friendly": "unknown",
    "source": "seed_v2"
  },
  {
    "id": "un기념공원",
    "name": "UN기념공원",
    "district": "남구",
    "area": "south",
    "category": "park",
    "address_hint": "부산 남구",
    "lat": 35.1268041825719,
    "lng": 129.095959674363,
    "tags": "history;walk;nature",
    "stay_min": 40,
    "best_time": "day",
    "indoor": "False",
    "wheelchair": "unknown",
    "pet_friendly": "unknown",
    "source": "seed_v2"
  },
  {
    "id": "경성대-부경대-먹거리-거리",
    "name": "경성대·부경대 먹거리 거리",
    "district": "남구",
    "area": "south",
    "category": "street",
    "address_hint": "부산 남구",
    "lat": 35.136522660289,
    "lng": 129.084238267311,
    "tags": "food;budget;night",
    "stay_min": 60,
    "best_time": "night",
    "indoor": "False",
    "wheelchair": "unknown",
    "pet_friendly": "unknown",
    "source": "seed_v2"
  },
  {
    "id": "수영사적공원",
    "name": "수영사적공원",
    "district": "수영구",
    "area": "south",
    "category": "park",
    "address_hint": "부산 수영구",
    "lat": 35.1709116405575,
    "lng": 129.114339255252,
    "tags": "history;walk",
    "stay_min": 40,
    "best_time": "day",
    "indoor": "False",
    "wheelchair": "unknown",
    "pet_friendly": "unknown",
    "source": "seed_v2"
  },
  {
    "id": "남천동-카페거리",
    "name": "남천동 카페거리",
    "district": "수영구",
    "area": "south",
    "category": "cafe_zone",
    "address_hint": "부산 수영구 남천동",
    "lat": 35.1508708395273,
    "lng": 129.116357196067,
    "tags": "cafe;dessert;date",
    "stay_min": 45,
    "best_time": "day",
    "indoor": "False",
    "wheelchair": "unknown",
    "pet_friendly": "unknown",
    "source": "seed_v2"
  },
  {
    "id": "광안리-오션뷰-카페거리",
    "name": "광안리 오션뷰 카페거리",
    "district": "수영구",
    "area": "south",
    "category": "cafe_zone",
    "address_hint": "부산 수영구 광안리",
    "lat": 35.1519,
    "lng": 129.1169,
    "tags": "cafe;date;nightview;photo",
    "stay_min": 50,
    "best_time": "night",
    "indoor": "False",
    "wheelchair": "unknown",
    "pet_friendly": "unknown",
    "source": "seed_v2"
  },
  {
    "id": "용호만-오션뷰-산책",
    "name": "용호만 오션뷰 산책",
    "district": "남구",
    "area": "south",
    "category": "trail",
    "address_hint": "부산 남구 용호동",
    "lat": 35.1139656623779,
    "lng": 129.116007443617,
    "tags": "walk;coastal;photo",
    "stay_min": 45,
    "best_time": "sunset",
    "indoor": "False",
    "wheelchair": "unknown",
    "pet_friendly": "unknown",
    "source": "seed_v2"
  },
  {
    "id": "광안리-요트-투어-선착장",
    "name": "광안리 요트 투어 선착장",
    "district": "수영구",
    "area": "south",
    "category": "attraction",
    "address_hint": "부산 수영구",
    "lat": 35.1455383782307,
    "lng": 129.113125189096,
    "tags": "photo;date;coastal",
    "stay_min": 60,
    "best_time": "sunset",
    "indoor": "False",
    "wheelchair": "unknown",
    "pet_friendly": "unknown",
    "source": "seed_v2"
  },
  {
    "id": "f1963-문화창고",
    "name": "F1963 문화창고",
    "district": "수영구",
    "area": "south",
    "category": "culture_complex",
    "address_hint": "부산 수영구 망미동",
    "lat": 35.1742365026629,
    "lng": 129.101004990511,
    "tags": "indoor;rainy;culture;photo;date",
    "stay_min": 60,
    "best_time": "day",
    "indoor": "True",
    "wheelchair": "unknown",
    "pet_friendly": "unknown",
    "source": "seed_v2"
  },
  {
    "id": "부산박물관-남구",
    "name": "부산박물관(남구)",
    "district": "남구",
    "area": "south",
    "category": "museum",
    "address_hint": "부산 남구",
    "lat": 35.1377322721912,
    "lng": 129.094567987732,
    "tags": "indoor;rainy;history;culture",
    "stay_min": 60,
    "best_time": "day",
    "indoor": "True",
    "wheelchair": "unknown",
    "pet_friendly": "unknown",
    "source": "seed_v2"
  },
  {
    "id": "국립일제강제동원역사관",
    "name": "국립일제강제동원역사관",
    "district": "남구",
    "area": "south",
    "category": "museum",
    "address_hint": "부산 남구",
    "lat": 35.1243436692899,
    "lng": 129.091912871304,
    "tags": "indoor;rainy;history;education",
    "stay_min": 60,
    "best_time": "day",
    "indoor": "True",
    "wheelchair": "unknown",
    "pet_friendly": "unknown",
    "source": "seed_v2"
  },
  {
    "id": "금련산-전망대",
    "name": "금련산 전망대",
    "district": "수영구",
    "area": "south",
    "category": "viewpoint",
    "address_hint": "부산 수영구",
    "lat": 35.1552459256205,
    "lng": 129.100674434976,
    "tags": "view;nightview;photo;hike",
    "stay_min": 40,
    "best_time": "night",
    "indoor": "False",
    "wheelchair": "unknown",
    "pet_friendly": "unknown",
    "source": "seed_v2"
  },
  {
    "id": "송도해수욕장",
    "name": "송도해수욕장",
    "district": "서구",
    "area": "west",
    "category": "beach",
    "address_hint": "부산 서구",
    "lat": 35.0731741450267,
    "lng": 129.014307935341,
    "tags": "coastal;walk;photo",
    "stay_min": 60,
    "best_time": "day",
    "indoor": "False",
    "wheelchair": "unknown",
    "pet_friendly": "unknown",
    "source": "seed_v2"
  },
  {
    "id": "송도구름산책로",
    "name": "송도구름산책로",
    "district": "서구",
    "area": "west",
    "category": "trail",
    "address_hint": "부산 서구",
    "lat": 35.075337486818,
    "lng": 129.022288875598,
    "tags": "walk;coastal;view;photo",
    "stay_min": 60,
    "best_time": "day",
    "indoor": "False",
    "wheelchair": "unknown",
    "pet_friendly": "unknown",
    "source": "seed_v2"
  },
  {
    "id": "송도해상케이블카",
    "name": "송도해상케이블카",
    "district": "서구",
    "area": "west",
    "category": "attraction",
    "address_hint": "부산 서구",
    "lat": 35.076643702635,
    "lng": 129.02339870312,
    "tags": "view;photo;date",
    "stay_min": 50,
    "best_time": "sunset",
    "indoor": "False",
    "wheelchair": "unknown",
    "pet_friendly": "unknown",
    "source": "seed_v2"
  },
  {
    "id": "암남공원",
    "name": "암남공원",
    "district": "서구",
    "area": "west",
    "category": "park",
    "address_hint": "부산 서구 암남동",
    "lat": 35.0731741450267,
    "lng": 129.014307935341,
    "tags": "walk;nature;coastal;view",
    "stay_min": 60,
    "best_time": "day",
    "indoor": "False",
    "wheelchair": "unknown",
    "pet_friendly": "unknown",
    "source": "seed_v2"
  },
  {
    "id": "다대포해수욕장",
    "name": "다대포해수욕장",
    "district": "사하구",
    "area": "west",
    "category": "beach",
    "address_hint": "부산 사하구",
    "lat": 35.048959498597604,
    "lng": 128.96508319796888,
    "tags": "coastal;photo;sunset;walk",
    "stay_min": 70,
    "best_time": "sunset",
    "indoor": "False",
    "wheelchair": "unknown",
    "pet_friendly": "unknown",
    "source": "seed_v2"
  },
  {
    "id": "다대포-몰운대",
    "name": "다대포 몰운대",
    "district": "사하구",
    "area": "west",
    "category": "viewpoint",
    "address_hint": "부산 사하구",
    "lat": 35.048959498597604,
    "lng": 128.96508319796888,
    "tags": "view;photo;coastal",
    "stay_min": 45,
    "best_time": "sunset",
    "indoor": "False",
    "wheelchair": "unknown",
    "pet_friendly": "unknown",
    "source": "seed_v2"
  },
  {
    "id": "을숙도-생태공원",
    "name": "을숙도 생태공원",
    "district": "사하구",
    "area": "west",
    "category": "park",
    "address_hint": "부산 사하구 을숙도",
    "lat": 35.1092509744478,
    "lng": 128.942723339212,
    "tags": "nature;walk;photo;birding",
    "stay_min": 60,
    "best_time": "day",
    "indoor": "False",
    "wheelchair": "unknown",
    "pet_friendly": "unknown",
    "source": "seed_v2"
  },
  {
    "id": "부산현대미술관-moca",
    "name": "부산현대미술관(MoCA)",
    "district": "사하구",
    "area": "west",
    "category": "museum",
    "address_hint": "부산 사하구 을숙도",
    "lat": 35.1101,
    "lng": 128.9432,
    "tags": "indoor;rainy;culture",
    "stay_min": 60,
    "best_time": "day",
    "indoor": "True",
    "wheelchair": "unknown",
    "pet_friendly": "unknown",
    "source": "seed_v2"
  },
  {
    "id": "낙동강하구-에코센터",
    "name": "낙동강하구 에코센터",
    "district": "사하구",
    "area": "west",
    "category": "museum",
    "address_hint": "부산 사하구",
    "lat": 35.104390581137736,
    "lng": 128.94582980921007,
    "tags": "indoor;education;kids;rainy",
    "stay_min": 50,
    "best_time": "day",
    "indoor": "True",
    "wheelchair": "unknown",
    "pet_friendly": "unknown",
    "source": "seed_v2"
  },
  {
    "id": "장림포구-감성-거리",
    "name": "장림포구 감성 거리",
    "district": "사하구",
    "area": "west",
    "category": "street",
    "address_hint": "부산 사하구 장림동",
    "lat": 35.0742973837713,
    "lng": 128.970527123964,
    "tags": "photo;walk;local",
    "stay_min": 45,
    "best_time": "sunset",
    "indoor": "False",
    "wheelchair": "unknown",
    "pet_friendly": "unknown",
    "source": "seed_v2"
  },
  {
    "id": "하단-카페거리",
    "name": "하단 카페거리",
    "district": "사하구",
    "area": "west",
    "category": "cafe_zone",
    "address_hint": "부산 사하구 하단동",
    "lat": 35.0963432761864,
    "lng": 128.96257728101,
    "tags": "cafe;dessert;date",
    "stay_min": 45,
    "best_time": "day",
    "indoor": "False",
    "wheelchair": "unknown",
    "pet_friendly": "unknown",
    "source": "seed_v2"
  },
  {
    "id": "신평-먹거리-시장",
    "name": "신평 먹거리/시장",
    "district": "사하구",
    "area": "west",
    "category": "market",
    "address_hint": "부산 사하구 신평동",
    "lat": 35.0916245823052,
    "lng": 128.965251318519,
    "tags": "local;food;budget",
    "stay_min": 50,
    "best_time": "night",
    "indoor": "False",
    "wheelchair": "unknown",
    "pet_friendly": "unknown",
    "source": "seed_v2"
  },
  {
    "id": "감천문화마을",
    "name": "감천문화마을",
    "district": "사하구",
    "area": "west",
    "category": "street",
    "address_hint": "부산 사하구 감천동",
    "lat": 35.10448345669894,
    "lng": 129.00634490351743,
    "tags": "photo;color;walk;culture",
    "stay_min": 80,
    "best_time": "day",
    "indoor": "False",
    "wheelchair": "unknown",
    "pet_friendly": "unknown",
    "source": "seed_v2"
  },
  {
    "id": "삼락생태공원-벚꽃길",
    "name": "삼락생태공원 벚꽃길",
    "district": "사상구",
    "area": "west",
    "category": "seasonal_spot",
    "address_hint": "부산 사상구",
    "lat": 35.152597977756,
    "lng": 128.991119769511,
    "tags": "seasonal;cherryblossom;walk;photo",
    "stay_min": 60,
    "best_time": "day",
    "indoor": "False",
    "wheelchair": "unknown",
    "pet_friendly": "unknown",
    "source": "seed_v2"
  },
  {
    "id": "다대포-낙조분수-야간",
    "name": "다대포 낙조분수(야간)",
    "district": "사하구",
    "area": "west",
    "category": "attraction",
    "address_hint": "부산 사하구 다대포",
    "lat": 35.0474,
    "lng": 128.9672,
    "tags": "nightview;photo;seasonal;family",
    "stay_min": 40,
    "best_time": "night",
    "indoor": "False",
    "wheelchair": "unknown",
    "pet_friendly": "unknown",
    "source": "seed_v2"
  },
  {
    "id": "김해국제공항-출발-앵커",
    "name": "김해국제공항(출발 앵커)",
    "district": "강서구",
    "area": "west",
    "category": "transit",
    "address_hint": "부산 강서구",
    "lat": 35.2121944923177,
    "lng": 128.980561688902,
    "tags": "transit;layover_start",
    "stay_min": 10,
    "best_time": "day",
    "indoor": "True",
    "wheelchair": "unknown",
    "pet_friendly": "unknown",
    "source": "seed_v2"
  },
  {
    "id": "biff-광장",
    "name": "BIFF 광장",
    "district": "중구",
    "area": "central",
    "category": "street",
    "address_hint": "부산 중구",
    "lat": 35.09830428696976,
    "lng": 129.02545700014196,
    "tags": "food;local;photo;night",
    "stay_min": 50,
    "best_time": "night",
    "indoor": "False",
    "wheelchair": "unknown",
    "pet_friendly": "unknown",
    "source": "seed_v2"
  },
  {
    "id": "자갈치시장",
    "name": "자갈치시장",
    "district": "중구",
    "area": "central",
    "category": "market",
    "address_hint": "부산 중구",
    "lat": 35.0982206774844,
    "lng": 129.033248920132,
    "tags": "market;seafood;food;local",
    "stay_min": 60,
    "best_time": "day",
    "indoor": "False",
    "wheelchair": "unknown",
    "pet_friendly": "unknown",
    "source": "seed_v2"
  },
  {
    "id": "국제시장",
    "name": "국제시장",
    "district": "중구",
    "area": "central",
    "category": "market",
    "address_hint": "부산 중구",
    "lat": 35.10328823952596,
    "lng": 129.02763970317906,
    "tags": "market;food;local;budget",
    "stay_min": 60,
    "best_time": "day",
    "indoor": "False",
    "wheelchair": "unknown",
    "pet_friendly": "unknown",
    "source": "seed_v2"
  },
  {
    "id": "용두산공원-부산타워",
    "name": "용두산공원·부산타워",
    "district": "중구",
    "area": "central",
    "category": "viewpoint",
    "address_hint": "부산 중구",
    "lat": 35.10121449509689,
    "lng": 129.03232871480225,
    "tags": "view;photo;walk",
    "stay_min": 45,
    "best_time": "night",
    "indoor": "False",
    "wheelchair": "unknown",
    "pet_friendly": "unknown",
    "source": "seed_v2"
  },
  {
    "id": "보수동-책방골목",
    "name": "보수동 책방골목",
    "district": "중구",
    "area": "central",
    "category": "street",
    "address_hint": "부산 중구",
    "lat": 35.10328823952596,
    "lng": 129.02763970317906,
    "tags": "culture;walk;photo;cafe",
    "stay_min": 50,
    "best_time": "day",
    "indoor": "False",
    "wheelchair": "unknown",
    "pet_friendly": "unknown",
    "source": "seed_v2"
  },
  {
    "id": "부평깡통야시장",
    "name": "부평깡통야시장",
    "district": "중구",
    "area": "central",
    "category": "market",
    "address_hint": "부산 중구",
    "lat": 35.101993281554186,
    "lng": 129.0262369227988,
    "tags": "market;streetfood;night;local",
    "stay_min": 60,
    "best_time": "night",
    "indoor": "False",
    "wheelchair": "unknown",
    "pet_friendly": "unknown",
    "source": "seed_v2"
  },
  {
    "id": "부산역-초량-이바구길-입구",
    "name": "부산역(초량 이바구길 입구)",
    "district": "동구",
    "area": "central",
    "category": "trail",
    "address_hint": "부산 동구",
    "lat": 35.1292668000695,
    "lng": 129.045305770373,
    "tags": "view;walk;photo",
    "stay_min": 60,
    "best_time": "day",
    "indoor": "False",
    "wheelchair": "unknown",
    "pet_friendly": "unknown",
    "source": "seed_v2"
  },
  {
    "id": "초량-168계단-전망",
    "name": "초량 168계단 전망",
    "district": "동구",
    "area": "central",
    "category": "viewpoint",
    "address_hint": "부산 동구",
    "lat": 35.1292668000695,
    "lng": 129.045305770373,
    "tags": "view;walk;photo",
    "stay_min": 40,
    "best_time": "day",
    "indoor": "False",
    "wheelchair": "unknown",
    "pet_friendly": "unknown",
    "source": "seed_v2"
  },
  {
    "id": "서면-젊음의거리",
    "name": "서면 젊음의거리",
    "district": "부산진구",
    "area": "central",
    "category": "street",
    "address_hint": "부산진구 서면",
    "lat": 35.154467256371,
    "lng": 129.060815356315,
    "tags": "night;food;shopping",
    "stay_min": 60,
    "best_time": "night",
    "indoor": "False",
    "wheelchair": "unknown",
    "pet_friendly": "unknown",
    "source": "seed_v2"
  },
  {
    "id": "전포-카페거리",
    "name": "전포 카페거리",
    "district": "부산진구",
    "area": "central",
    "category": "cafe_zone",
    "address_hint": "부산진구 전포동",
    "lat": 35.162830734938005,
    "lng": 129.05318786731254,
    "tags": "cafe;dessert;date;photo",
    "stay_min": 60,
    "best_time": "day",
    "indoor": "False",
    "wheelchair": "unknown",
    "pet_friendly": "unknown",
    "source": "seed_v2"
  },
  {
    "id": "부산시민공원",
    "name": "부산시민공원",
    "district": "부산진구",
    "area": "central",
    "category": "park",
    "address_hint": "부산진구",
    "lat": 35.162830734938005,
    "lng": 129.05318786731254,
    "tags": "walk;nature;family",
    "stay_min": 60,
    "best_time": "day",
    "indoor": "False",
    "wheelchair": "unknown",
    "pet_friendly": "unknown",
    "source": "seed_v2"
  },
  {
    "id": "동래읍성-북문-일대",
    "name": "동래읍성 북문 일대",
    "district": "동래구",
    "area": "central",
    "category": "history",
    "address_hint": "부산 동래구",
    "lat": 35.2050915314732,
    "lng": 129.083719021169,
    "tags": "history;walk;photo",
    "stay_min": 45,
    "best_time": "day",
    "indoor": "False",
    "wheelchair": "unknown",
    "pet_friendly": "unknown",
    "source": "seed_v2"
  },
  {
    "id": "범어사",
    "name": "범어사",
    "district": "금정구",
    "area": "central",
    "category": "temple",
    "address_hint": "부산 금정구",
    "lat": 35.27915059995911,
    "lng": 129.08475686899362,
    "tags": "history;walk;nature;photo",
    "stay_min": 70,
    "best_time": "day",
    "indoor": "False",
    "wheelchair": "unknown",
    "pet_friendly": "unknown",
    "source": "seed_v2"
  },
  {
    "id": "온천천-카페-벚꽃-스팟",
    "name": "온천천 카페/벚꽃 스팟",
    "district": "동래구",
    "area": "central",
    "category": "cafe_zone",
    "address_hint": "부산 동래구",
    "lat": 35.2050915314732,
    "lng": 129.083719021169,
    "tags": "cafe;walk;seasonal;photo",
    "stay_min": 50,
    "best_time": "day",
    "indoor": "False",
    "wheelchair": "unknown",
    "pet_friendly": "unknown",
    "source": "seed_v2"
  },
  {
    "id": "부산시립도서관-시청역-인근",
    "name": "부산시립도서관(시청역 인근)",
    "district": "연제구",
    "area": "central",
    "category": "library",
    "address_hint": "부산 연제구",
    "lat": 35.1762076666857,
    "lng": 129.079741441241,
    "tags": "indoor;rainy;quiet;solo",
    "stay_min": 40,
    "best_time": "day",
    "indoor": "True",
    "wheelchair": "unknown",
    "pet_friendly": "unknown",
    "source": "seed_v2"
  },
  {
    "id": "서면-돼지국밥-골목",
    "name": "서면 돼지국밥 골목",
    "district": "부산진구",
    "area": "central",
    "category": "food_street",
    "address_hint": "부산진구 서면",
    "lat": 35.1553,
    "lng": 129.0585,
    "tags": "food;local;budget",
    "stay_min": 60,
    "best_time": "day",
    "indoor": "False",
    "wheelchair": "unknown",
    "pet_friendly": "unknown",
    "source": "seed_v2"
  },
  {
    "id": "부전시장",
    "name": "부전시장",
    "district": "부산진구",
    "area": "central",
    "category": "market",
    "address_hint": "부산진구 부전동",
    "lat": 35.162830734938005,
    "lng": 129.05318786731254,
    "tags": "market;local;food;budget",
    "stay_min": 60,
    "best_time": "day",
    "indoor": "False",
    "wheelchair": "unknown",
    "pet_friendly": "unknown",
    "source": "seed_v2"
  },
  {
    "id": "부산진시장",
    "name": "부산진시장",
    "district": "부산진구",
    "area": "central",
    "category": "market",
    "address_hint": "부산진구",
    "lat": 35.162830734938005,
    "lng": 129.05318786731254,
    "tags": "market;local;food",
    "stay_min": 50,
    "best_time": "day",
    "indoor": "False",
    "wheelchair": "unknown",
    "pet_friendly": "unknown",
    "source": "seed_v2"
  },
  {
    "id": "부산어린이대공원",
    "name": "부산어린이대공원",
    "district": "부산진구",
    "area": "central",
    "category": "park",
    "address_hint": "부산진구 초읍동",
    "lat": 35.17869249841721,
    "lng": 129.04752265178797,
    "tags": "family;kids;walk;nature;photo",
    "stay_min": 80,
    "best_time": "day",
    "indoor": "False",
    "wheelchair": "unknown",
    "pet_friendly": "unknown",
    "source": "seed_v2"
  },
  {
    "id": "삼광사",
    "name": "삼광사",
    "district": "부산진구",
    "area": "central",
    "category": "temple",
    "address_hint": "부산진구 초읍동",
    "lat": 35.1757059222729,
    "lng": 129.04336924905,
    "tags": "history;temple;photo;seasonal",
    "stay_min": 60,
    "best_time": "night",
    "indoor": "False",
    "wheelchair": "unknown",
    "pet_friendly": "unknown",
    "source": "seed_v2"
  },
  {
    "id": "허심청-온천-온천장",
    "name": "허심청 온천(온천장)",
    "district": "동래구",
    "area": "central",
    "category": "spa",
    "address_hint": "부산 동래구 온천장",
    "lat": 35.222018145199876,
    "lng": 129.08134487397658,
    "tags": "indoor;rainy;relax;solo",
    "stay_min": 80,
    "best_time": "day",
    "indoor": "True",
    "wheelchair": "unknown",
    "pet_friendly": "unknown",
    "source": "seed_v2"
  },
  {
    "id": "황령산-봉수대-전망대",
    "name": "황령산 봉수대 전망대",
    "district": "연제구",
    "area": "central",
    "category": "viewpoint",
    "address_hint": "부산 연제구",
    "lat": 35.1594304266653,
    "lng": 129.081495610787,
    "tags": "nightview;view;photo;drive",
    "stay_min": 40,
    "best_time": "night",
    "indoor": "False",
    "wheelchair": "unknown",
    "pet_friendly": "unknown",
    "source": "seed_v2"
  },
  {
    "id": "금정산-고당봉-코스",
    "name": "금정산 고당봉 코스",
    "district": "금정구",
    "area": "central",
    "category": "hike",
    "address_hint": "부산 금정구",
    "lat": 35.2427772019609,
    "lng": 129.092095292484,
    "tags": "hike;view;nature;photo",
    "stay_min": 120,
    "best_time": "day",
    "indoor": "False",
    "wheelchair": "unknown",
    "pet_friendly": "unknown",
    "source": "seed_v2"
  },
  {
    "id": "부산근대역사관",
    "name": "부산근대역사관",
    "district": "중구",
    "area": "central",
    "category": "museum",
    "address_hint": "부산 중구",
    "lat": 35.1026632677641,
    "lng": 129.031218773668,
    "tags": "indoor;rainy;history;culture",
    "stay_min": 60,
    "best_time": "day",
    "indoor": "True",
    "wheelchair": "unknown",
    "pet_friendly": "unknown",
    "source": "seed_v2"
  },
  {
    "id": "부산역-출발-앵커",
    "name": "부산역(출발 앵커)",
    "district": "동구",
    "area": "central",
    "category": "transit",
    "address_hint": "부산 동구 초량동",
    "lat": 35.1213355196718,
    "lng": 129.033586449746,
    "tags": "transit;layover_start",
    "stay_min": 10,
    "best_time": "day",
    "indoor": "True",
    "wheelchair": "unknown",
    "pet_friendly": "unknown",
    "source": "seed_v2"
  },
  {
    "id": "태종대",
    "name": "태종대",
    "district": "영도구",
    "area": "yeongdo",
    "category": "park",
    "address_hint": "부산 영도구",
    "lat": 35.069133394223,
    "lng": 129.08241327836,
    "tags": "view;walk;coastal;photo",
    "stay_min": 90,
    "best_time": "day",
    "indoor": "False",
    "wheelchair": "unknown",
    "pet_friendly": "unknown",
    "source": "seed_v2"
  },
  {
    "id": "흰여울문화마을",
    "name": "흰여울문화마을",
    "district": "영도구",
    "area": "yeongdo",
    "category": "street",
    "address_hint": "부산 영도구",
    "lat": 35.077914975149746,
    "lng": 129.04527260373365,
    "tags": "walk;photo;coastal;cafe",
    "stay_min": 60,
    "best_time": "day",
    "indoor": "False",
    "wheelchair": "unknown",
    "pet_friendly": "unknown",
    "source": "seed_v2"
  },
  {
    "id": "절영해안산책로",
    "name": "절영해안산책로",
    "district": "영도구",
    "area": "yeongdo",
    "category": "trail",
    "address_hint": "부산 영도구",
    "lat": 35.0813686266753,
    "lng": 129.041188583626,
    "tags": "walk;coastal;view;photo",
    "stay_min": 80,
    "best_time": "day",
    "indoor": "False",
    "wheelchair": "unknown",
    "pet_friendly": "unknown",
    "source": "seed_v2"
  },
  {
    "id": "남항대교-전망-포인트",
    "name": "남항대교 전망 포인트",
    "district": "영도구",
    "area": "yeongdo",
    "category": "nightview_spot",
    "address_hint": "부산 영도구",
    "lat": 35.0912398945932,
    "lng": 129.06788880232,
    "tags": "nightview;photo;drive",
    "stay_min": 30,
    "best_time": "night",
    "indoor": "False",
    "wheelchair": "unknown",
    "pet_friendly": "unknown",
    "source": "seed_v2"
  },
  {
    "id": "영도대교-주변-야경",
    "name": "영도대교 주변 야경",
    "district": "영도구",
    "area": "yeongdo",
    "category": "nightview_spot",
    "address_hint": "부산 영도구",
    "lat": 35.0912398945932,
    "lng": 129.06788880232,
    "tags": "nightview;photo;drive",
    "stay_min": 30,
    "best_time": "night",
    "indoor": "False",
    "wheelchair": "unknown",
    "pet_friendly": "unknown",
    "source": "seed_v2"
  },
  {
    "id": "영도-오션뷰-카페존",
    "name": "영도 오션뷰 카페존",
    "district": "영도구",
    "area": "yeongdo",
    "category": "cafe_zone",
    "address_hint": "부산 영도구",
    "lat": 35.0912398945932,
    "lng": 129.06788880232,
    "tags": "cafe;date;photo;coastal",
    "stay_min": 50,
    "best_time": "day",
    "indoor": "False",
    "wheelchair": "unknown",
    "pet_friendly": "unknown",
    "source": "seed_v2"
  },
  {
    "id": "국립해양박물관",
    "name": "국립해양박물관",
    "district": "영도구",
    "area": "yeongdo",
    "category": "museum",
    "address_hint": "부산 영도구",
    "lat": 35.09020508229797,
    "lng": 129.06753484790727,
    "tags": "indoor;rainy;education;family",
    "stay_min": 70,
    "best_time": "day",
    "indoor": "True",
    "wheelchair": "unknown",
    "pet_friendly": "unknown",
    "source": "seed_v2"
  },
  {
    "id": "청학배수지-전망대",
    "name": "청학배수지 전망대",
    "district": "영도구",
    "area": "yeongdo",
    "category": "viewpoint",
    "address_hint": "부산 영도구 청학동",
    "lat": 35.088455520043,
    "lng": 129.060148282366,
    "tags": "view;nightview;photo",
    "stay_min": 40,
    "best_time": "night",
    "indoor": "False",
    "wheelchair": "unknown",
    "pet_friendly": "unknown",
    "source": "seed_v2"
  },
  {
    "id": "영도-일주-드라이브-포인트",
    "name": "영도 일주 드라이브 포인트",
    "district": "영도구",
    "area": "yeongdo",
    "category": "drive_spot",
    "address_hint": "부산 영도구",
    "lat": 35.0912398945932,
    "lng": 129.06788880232,
    "tags": "drive;coastal;view;photo",
    "stay_min": 40,
    "best_time": "day",
    "indoor": "False",
    "wheelchair": "unknown",
    "pet_friendly": "unknown",
    "source": "seed_v2"
  }
]
